[
  {
    "name": "Narita Intl",
    "city": "Tokyo",
    "country": "Japan",
    "iata_code": "NRT",
    "_geoloc": {
      "lat": 35.764722,
      "lng": 140.386389
    },
    "links_count": 575,
    "objectID": "2279"
  },
  {
    "name": "Capital Intl",
    "city": "Beijing",
    "country": "China",
    "iata_code": "PEK",
    "_geoloc": {
      "lat": 40.080111,
      "lng": 116.584556
    },
    "links_count": 1069,
    "objectID": "3364"
  },
  {
    "name": "Pudong",
    "city": "Shanghai",
    "country": "China",
    "iata_code": "PVG",
    "_geoloc": {
      "lat": 31.143378,
      "lng": 121.805214
    },
    "links_count": 825,
    "objectID": "3406"
  },
  {
    "name": "Hong Kong Intl",
    "city": "Hong Kong",
    "country": "Hong Kong",
    "iata_code": "HKG",
    "_geoloc": {
      "lat": 22.308919,
      "lng": 113.914603
    },
    "links_count": 710,
    "objectID": "3077"
  },
  {
    "name": "Suvarnabhumi Intl",
    "city": "Bangkok",
    "country": "Thailand",
    "iata_code": "BKK",
    "_geoloc": {
      "lat": 13.681108,
      "lng": 100.747283
    },
    "links_count": 656,
    "objectID": "3885"
  },
  {
    "name": "Phuket Intl",
    "city": "Phuket",
    "country": "Thailand",
    "iata_code": "HKT",
    "_geoloc": {
      "lat": 8.1132,
      "lng": 98.316872
    },
    "links_count": 138,
    "objectID": "3179"
  },
  {
    "name": "Chhatrapati Shivaji Intl",
    "city": "Mumbai",
    "country": "India",
    "iata_code": "BOM",
    "_geoloc": {
      "lat": 19.088686,
      "lng": 72.867919
    },
    "links_count": 452,
    "objectID": "2997"
  },
  {
    "name": "Dubai Intl",
    "city": "Dubai",
    "country": "United Arab Emirates",
    "iata_code": "DXB",
    "_geoloc": {
      "lat": 25.252778,
      "lng": 55.364444
    },
    "links_count": 710,
    "objectID": "2188"
  },
  {
    "name": "Tbilisi",
    "city": "Tbilisi",
    "country": "Georgia",
    "iata_code": "TBS",
    "_geoloc": {
      "lat": 41.669167,
      "lng": 44.954722
    },
    "links_count": 69,
    "objectID": "3973"
  },
  {
    "name": "Johannesburg Intl",
    "city": "Johannesburg",
    "country": "South Africa",
    "iata_code": "JNB",
    "_geoloc": {
      "lat": -26.139166,
      "lng": 28.246
    },
    "links_count": 321,
    "objectID": "813"
  },
  {
    "name": "Larnaca",
    "city": "Larnaca",
    "country": "Cyprus",
    "iata_code": "LCA",
    "_geoloc": {
      "lat": 34.875117,
      "lng": 33.62485
    },
    "links_count": 190,
    "objectID": "1197"
  },
  {
    "name": "Eleftherios Venizelos Intl",
    "city": "Athens",
    "country": "Greece",
    "iata_code": "ATH",
    "_geoloc": {
      "lat": 37.936358,
      "lng": 23.944467
    },
    "links_count": 403,
    "objectID": "3941"
  },
  {
    "name": "Sofia",
    "city": "Sofia",
    "country": "Bulgaria",
    "iata_code": "SOF",
    "_geoloc": {
      "lat": 42.695194,
      "lng": 23.406167
    },
    "links_count": 132,
    "objectID": "1194"
  },
  {
    "name": "Henri Coanda",
    "city": "Bucharest",
    "country": "Romania",
    "iata_code": "OTP",
    "_geoloc": {
      "lat": 44.572161,
      "lng": 26.102178
    },
    "links_count": 227,
    "objectID": "1657"
  },
  {
    "name": "Boryspil Intl",
    "city": "Kiev",
    "country": "Ukraine",
    "iata_code": "KBP",
    "_geoloc": {
      "lat": 50.345,
      "lng": 30.894722
    },
    "links_count": 202,
    "objectID": "2939"
  },
  {
    "name": "Okecie",
    "city": "Warsaw",
    "country": "Poland",
    "iata_code": "WAW",
    "_geoloc": {
      "lat": 52.16575,
      "lng": 20.967122
    },
    "links_count": 240,
    "objectID": "679"
  },
  {
    "name": "Ferihegy",
    "city": "Budapest",
    "country": "Hungary",
    "iata_code": "BUD",
    "_geoloc": {
      "lat": 47.436933,
      "lng": 19.255592
    },
    "links_count": 195,
    "objectID": "1489"
  },
  {
    "name": "Schwechat",
    "city": "Vienna",
    "country": "Austria",
    "iata_code": "VIE",
    "_geoloc": {
      "lat": 48.110278,
      "lng": 16.569722
    },
    "links_count": 616,
    "objectID": "1613"
  },
  {
    "name": "Ruzyne",
    "city": "Prague",
    "country": "Czech Republic",
    "iata_code": "PRG",
    "_geoloc": {
      "lat": 50.100833,
      "lng": 14.26
    },
    "links_count": 361,
    "objectID": "1587"
  },
  {
    "name": "Tegel",
    "city": "Berlin",
    "country": "Germany",
    "iata_code": "TXL",
    "_geoloc": {
      "lat": 52.559686,
      "lng": 13.287711
    },
    "links_count": 418,
    "objectID": "351"
  },
  {
    "name": "Franz Josef Strauss",
    "city": "Munich",
    "country": "Germany",
    "iata_code": "MUC",
    "_geoloc": {
      "lat": 48.353783,
      "lng": 11.786086
    },
    "links_count": 728,
    "objectID": "346"
  },
  {
    "name": "Frankfurt Main",
    "city": "Frankfurt",
    "country": "Germany",
    "iata_code": "FRA",
    "_geoloc": {
      "lat": 50.026421,
      "lng": 8.543125
    },
    "links_count": 990,
    "objectID": "340"
  },
  {
    "name": "Venezia Tessera",
    "city": "Venice",
    "country": "Italy",
    "iata_code": "VCE",
    "_geoloc": {
      "lat": 45.505278,
      "lng": 12.351944
    },
    "links_count": 245,
    "objectID": "1551"
  },
  {
    "name": "Fiumicino",
    "city": "Rome",
    "country": "Italy",
    "iata_code": "FCO",
    "_geoloc": {
      "lat": 41.804475,
      "lng": 12.250797
    },
    "links_count": 662,
    "objectID": "1555"
  },
  {
    "name": "Zurich",
    "city": "Zurich",
    "country": "Switzerland",
    "iata_code": "ZRH",
    "_geoloc": {
      "lat": 47.464722,
      "lng": 8.549167
    },
    "links_count": 494,
    "objectID": "1678"
  },
  {
    "name": "Geneve Cointrin",
    "city": "Geneva",
    "country": "Switzerland",
    "iata_code": "GVA",
    "_geoloc": {
      "lat": 46.238064,
      "lng": 6.10895
    },
    "links_count": 329,
    "objectID": "1665"
  },
  {
    "name": "Malpensa",
    "city": "Milano",
    "country": "Italy",
    "iata_code": "MXP",
    "_geoloc": {
      "lat": 45.630606,
      "lng": 8.728111
    },
    "links_count": 386,
    "objectID": "1524"
  },
  {
    "name": "Provence",
    "city": "Marseille",
    "country": "France",
    "iata_code": "MRS",
    "_geoloc": {
      "lat": 43.435555,
      "lng": 5.213611
    },
    "links_count": 265,
    "objectID": "1353"
  },
  {
    "name": "Charles De Gaulle",
    "city": "Paris",
    "country": "France",
    "iata_code": "CDG",
    "_geoloc": {
      "lat": 49.012779,
      "lng": 2.55
    },
    "links_count": 1041,
    "objectID": "1382"
  },
  {
    "name": "Barcelona",
    "city": "Barcelona",
    "country": "Spain",
    "iata_code": "BCN",
    "_geoloc": {
      "lat": 41.297078,
      "lng": 2.078464
    },
    "links_count": 783,
    "objectID": "1218"
  },
  {
    "name": "Barajas",
    "city": "Madrid",
    "country": "Spain",
    "iata_code": "MAD",
    "_geoloc": {
      "lat": 40.493556,
      "lng": -3.566764
    },
    "links_count": 661,
    "objectID": "1229"
  },
  {
    "name": "Brussels Natl",
    "city": "Brussels",
    "country": "Belgium",
    "iata_code": "BRU",
    "_geoloc": {
      "lat": 50.901389,
      "lng": 4.484444
    },
    "links_count": 631,
    "objectID": "302"
  },
  {
    "name": "Domododevo",
    "city": "Moscow",
    "country": "Russia",
    "iata_code": "DME",
    "_geoloc": {
      "lat": 55.408611,
      "lng": 37.906111
    },
    "links_count": 649,
    "objectID": "4029"
  },
  {
    "name": "Liege",
    "city": "Liege",
    "country": "Belgium",
    "iata_code": "LGG",
    "_geoloc": {
      "lat": 50.637417,
      "lng": 5.443222
    },
    "links_count": 17,
    "objectID": "309"
  },
  {
    "name": "Heathrow",
    "city": "London",
    "country": "United Kingdom",
    "iata_code": "LHR",
    "_geoloc": {
      "lat": 51.4775,
      "lng": -0.461389
    },
    "links_count": 1051,
    "objectID": "507"
  },
  {
    "name": "Mohammed V Intl",
    "city": "Casablanca",
    "country": "Morocco",
    "iata_code": "CMN",
    "_geoloc": {
      "lat": 33.367467,
      "lng": -7.589967
    },
    "links_count": 250,
    "objectID": "1074"
  },
  {
    "name": "Menara",
    "city": "Marrakech",
    "country": "Morocco",
    "iata_code": "RAK",
    "_geoloc": {
      "lat": 31.606886,
      "lng": -8.0363
    },
    "links_count": 145,
    "objectID": "1075"
  },
  {
    "name": "Dublin",
    "city": "Dublin",
    "country": "Ireland",
    "iata_code": "DUB",
    "_geoloc": {
      "lat": 53.421333,
      "lng": -6.270075
    },
    "links_count": 414,
    "objectID": "599"
  },
  {
    "name": "John F Kennedy Intl",
    "city": "New York",
    "country": "United States",
    "iata_code": "JFK",
    "_geoloc": {
      "lat": 40.639751,
      "lng": -73.778925
    },
    "links_count": 911,
    "objectID": "3797"
  },
  {
    "name": "General Edward Lawrence Logan Intl",
    "city": "Boston",
    "country": "United States",
    "iata_code": "BOS",
    "_geoloc": {
      "lat": 42.364347,
      "lng": -71.005181
    },
    "links_count": 424,
    "objectID": "3448"
  },
  {
    "name": "Miami Intl",
    "city": "Miami",
    "country": "United States",
    "iata_code": "MIA",
    "_geoloc": {
      "lat": 25.79325,
      "lng": -80.290556
    },
    "links_count": 734,
    "objectID": "3576"
  },
  {
    "name": "Lester B Pearson Intl",
    "city": "Toronto",
    "country": "Canada",
    "iata_code": "YYZ",
    "_geoloc": {
      "lat": 43.677223,
      "lng": -79.630556
    },
    "links_count": 636,
    "objectID": "193"
  },
  {
    "name": "Chicago Ohare Intl",
    "city": "Chicago",
    "country": "United States",
    "iata_code": "ORD",
    "_geoloc": {
      "lat": 41.978603,
      "lng": -87.904842
    },
    "links_count": 1108,
    "objectID": "3830"
  },
  {
    "name": "Mc Carran Intl",
    "city": "Las Vegas",
    "country": "United States",
    "iata_code": "LAS",
    "_geoloc": {
      "lat": 36.080056,
      "lng": -115.15225
    },
    "links_count": 498,
    "objectID": "3877"
  },
  {
    "name": "San Francisco Intl",
    "city": "San Francisco",
    "country": "United States",
    "iata_code": "SFO",
    "_geoloc": {
      "lat": 37.618972,
      "lng": -122.374889
    },
    "links_count": 499,
    "objectID": "3469"
  },
  {
    "name": "Los Angeles Intl",
    "city": "Los Angeles",
    "country": "United States",
    "iata_code": "LAX",
    "_geoloc": {
      "lat": 33.942536,
      "lng": -118.408075
    },
    "links_count": 990,
    "objectID": "3484"
  },
  {
    "name": "Ben Gurion",
    "city": "Tel Aviv-Yafo",
    "country": "Israel",
    "iata_code": "TLV",
    "_geoloc": {
      "lat": 32.011389,
      "lng": 34.886667
    },
    "links_count": 271,
    "objectID": "1590"
  },
  {
    "name": "Newark Liberty Intl",
    "city": "Newark",
    "country": "United States",
    "iata_code": "EWR",
    "_geoloc": {
      "lat": 40.6925,
      "lng": -74.168667
    },
    "links_count": 505,
    "objectID": "3494"
  },
  {
    "name": "Luton",
    "city": "London",
    "country": "United Kingdom",
    "iata_code": "LTN",
    "_geoloc": {
      "lat": 51.874722,
      "lng": -0.368333
    },
    "links_count": 214,
    "objectID": "492"
  },
  {
    "name": "Schiphol",
    "city": "Amsterdam",
    "country": "Netherlands",
    "iata_code": "AMS",
    "_geoloc": {
      "lat": 52.308613,
      "lng": 4.763889
    },
    "links_count": 903,
    "objectID": "580"
  },
  {
    "name": "Cote D'Azur",
    "city": "Nice",
    "country": "France",
    "iata_code": "NCE",
    "_geoloc": {
      "lat": 43.658411,
      "lng": 7.215872
    },
    "links_count": 269,
    "objectID": "1354"
  }
]
